{
  "success": true,
  "providers": [
    {
      "address1": "815 Nicollet Mall",
      "address2": null,
      "city": "Minneapolis",
      "crossStreet": "Nicollet Mall & 8th Street",
      "description": "test location28398 description of services\/prices\/hours",
      "distance": 0.612734570137247,
      "lat": 44.975752,
      "lon": -93.273174,
      "name": "testlocation28398",
      "phone": "6125551212",
      "precise": true,
      "state": "MN",
      "url": "http:\/\/www.testlocation28398.com?id=28398",
      "urlCaption": "www.testlocation28398.com",
      "zip": "554022504"
    }, {
      "address1": "55 University Ave SE",
      "address2": null,
      "city": "Minneapolis",
      "crossStreet": null,
      "description": "test location26268 description of services\/prices\/hours",
      "distance": 0.614461659090666,
      "lat": 44.987047,
      "lon": -93.255244,
      "name": "testlocation26268",
      "phone": "6125551212",
      "precise": true,
      "state": "MN",
      "url": "http:\/\/www.testlocation26268.com?id=26268",
      "urlCaption": "www.testlocation26268.com",
      "zip": "554141020"
    }, {
      "address1": "825 Nicollet Mall",
      "address2": "Ste 150",
      "city": "Minneapolis",
      "crossStreet": null,
      "description": "test location25801 description of services\/prices\/hours",
      "distance": 0.621657294179165,
      "lat": 44.975637,
      "lon": -93.273258,
      "name": "testlocation25801",
      "phone": "6125551212",
      "precise": true,
      "state": "MN",
      "url": "http:\/\/www.testlocation25801.com?id=25801",
      "urlCaption": "www.testlocation25801.com",
      "zip": "554022512"
    }, {
      "address1": "900 Nicollet Mall",
      "address2": null,
      "city": "Minneapolis",
      "crossStreet": null,
      "description": "test location30030 description of services\/prices\/hours",
      "distance": 0.705395242264884,
      "lat": 44.974622,
      "lon": -93.274196,
      "name": "testlocation30030",
      "phone": "6125551212",
      "precise": true,
      "state": "MN",
      "url": "http:\/\/www.testlocation30030.com?id=30030",
      "urlCaption": "www.testlocation30030.com",
      "zip": "554032530"
    }, {
      "address1": "701 Park Ave",
      "address2": null,
      "city": "Minneapolis",
      "crossStreet": null,
      "description": "test location62641 description of services\/prices\/hours",
      "distance": 0.75354202875623,
      "lat": 44.97279,
      "lon": -93.262727,
      "name": "testlocation62641",
      "phone": "6125551212",
      "precise": true,
      "state": "MN",
      "url": "http:\/\/www.testlocation62641.com?id=62641",
      "urlCaption": "www.testlocation62641.com",
      "zip": "554151829"
    }, {
      "address1": "949 Portland Ave",
      "address2": null,
      "city": "Minneapolis",
      "crossStreet": null,
      "description": "test location27120 description of services\/prices\/hours",
      "distance": 0.852449540715381,
      "lat": 44.971002,
      "lon": -93.266115,
      "name": "testlocation27120",
      "phone": "6125551212",
      "precise": true,
      "state": "MN",
      "url": "http:\/\/www.testlocation27120.com?id=27120",
      "urlCaption": "www.testlocation27120.com",
      "zip": "554041147"
    }, {
      "address1": "1110 Hennepin Ave",
      "address2": null,
      "city": "Minneapolis",
      "crossStreet": null,
      "description": "test location26330 description of services\/prices\/hours",
      "distance": 0.858987682511677,
      "lat": 44.975037,
      "lon": -93.27976,
      "name": "testlocation26330",
      "phone": "6125551212",
      "precise": true,
      "state": "MN",
      "url": "http:\/\/www.testlocation26330.com?id=26330",
      "urlCaption": "www.testlocation26330.com",
      "zip": "554031704"
    }, {
      "address1": "825 S 8th St",
      "address2": "Ste SL10",
      "city": "Minneapolis",
      "crossStreet": null,
      "description": "test location26345 description of services\/prices\/hours",
      "distance": 0.876749650571452,
      "lat": 44.971127,
      "lon": -93.261768,
      "name": "testlocation26345",
      "phone": "6125551212",
      "precise": true,
      "state": "MN",
      "url": "http:\/\/www.testlocation26345.com?id=26345",
      "urlCaption": "www.testlocation26345.com",
      "zip": "554041284"
    }, {
      "address1": "1509 10th Ave S",
      "address2": null,
      "city": "Minneapolis",
      "crossStreet": null,
      "description": "test location29444 description of services\/prices\/hours",
      "distance": 1.12878013798898,
      "lat": 44.967771,
      "lon": -93.259642,
      "name": "testlocation29444",
      "phone": "6125551212",
      "precise": true,
      "state": "MN",
      "url": "http:\/\/www.testlocation29444.com?id=29444",
      "urlCaption": "www.testlocation29444.com",
      "zip": "554041754"
    }, {
      "address1": "9 W 14th St",
      "address2": null,
      "city": "Minneapolis",
      "crossStreet": null,
      "description": "test location26368 description of services\/prices\/hours",
      "distance": 1.14682121843683,
      "lat": 44.968768,
      "lon": -93.277922,
      "name": "testlocation26368",
      "phone": "6125551212",
      "precise": true,
      "state": "MN",
      "url": "http:\/\/www.testlocation26368.com?id=26368",
      "urlCaption": "www.testlocation26368.com",
      "zip": "554032478"
    }, {
      "address1": "327 Cedar Ave S",
      "address2": null,
      "city": "Minneapolis",
      "crossStreet": null,
      "description": "test location27595 description of services\/prices\/hours",
      "distance": 1.28938972652957,
      "lat": 44.970722,
      "lon": -93.247224,
      "name": "testlocation27595",
      "phone": "6125551212",
      "precise": true,
      "state": "MN",
      "url": "http:\/\/www.testlocation27595.com?id=27595",
      "urlCaption": "www.testlocation27595.com",
      "zip": "554541030"
    }, {
      "address1": "621 W Broadway Ave",
      "address2": null,
      "city": "Minneapolis",
      "crossStreet": "Broadway Avenue & Lyndale Avenue",
      "description": "test location28330 description of services\/prices\/hours",
      "distance": 1.48853804820666,
      "lat": 44.999123,
      "lon": -93.287398,
      "name": "testlocation28330",
      "phone": "6125551212",
      "precise": true,
      "state": "MN",
      "url": "http:\/\/www.testlocation28330.com?id=28330",
      "urlCaption": "www.testlocation28330.com",
      "zip": "554112712"
    }, {
      "address1": "701 W Broadway Ave",
      "address2": null,
      "city": "Minneapolis",
      "crossStreet": null,
      "description": "test location25769 description of services\/prices\/hours",
      "distance": 1.53513838357679,
      "lat": 44.999125,
      "lon": -93.288773,
      "name": "testlocation25769",
      "phone": "6125551212",
      "precise": true,
      "state": "MN",
      "url": "http:\/\/www.testlocation25769.com?id=25769",
      "urlCaption": "www.testlocation25769.com",
      "zip": "554112611"
    }, {
      "address1": "2001 Nicollet Ave",
      "address2": null,
      "city": "Minneapolis",
      "crossStreet": null,
      "description": "test location26326 description of services\/prices\/hours",
      "distance": 1.56140916662966,
      "lat": 44.962148,
      "lon": -93.277791,
      "name": "testlocation26326",
      "phone": "6125551212",
      "precise": true,
      "state": "MN",
      "url": "http:\/\/www.testlocation26326.com?id=26326",
      "urlCaption": "www.testlocation26326.com",
      "zip": "554042527"
    }, {
      "address1": "1433 E Franklin Ave",
      "address2": "Ste 13B",
      "city": "Minneapolis",
      "crossStreet": null,
      "description": "test location26296 description of services\/prices\/hours",
      "distance": 1.56172449897974,
      "lat": 44.962684,
      "lon": -93.253674,
      "name": "testlocation26296",
      "phone": "6125551212",
      "precise": true,
      "state": "MN",
      "url": "http:\/\/www.testlocation26296.com?id=26296",
      "urlCaption": "www.testlocation26296.com",
      "zip": "554042197"
    }, {
      "address1": "2215 Park Ave",
      "address2": null,
      "city": "Minneapolis",
      "crossStreet": null,
      "description": "test location27838 description of services\/prices\/hours",
      "distance": 1.57805537574561,
      "lat": 44.960521,
      "lon": -93.265084,
      "name": "testlocation27838",
      "phone": "6125551212",
      "precise": true,
      "state": "MN",
      "url": "http:\/\/www.testlocation27838.com?id=27838",
      "urlCaption": "www.testlocation27838.com",
      "zip": "554043756"
    }, {
      "address1": "316 15th Ave SE",
      "address2": null,
      "city": "Minneapolis",
      "crossStreet": null,
      "description": "test location26814 description of services\/prices\/hours",
      "distance": 1.58155850304591,
      "lat": 44.979473,
      "lon": -93.234771,
      "name": "testlocation26814",
      "phone": "6125551212",
      "precise": true,
      "state": "MN",
      "url": "http:\/\/www.testlocation26814.com?id=26814",
      "urlCaption": "www.testlocation26814.com",
      "zip": "554142008"
    }, {
      "address1": "2001 Blaisdell Ave",
      "address2": null,
      "city": "Minneapolis",
      "crossStreet": null,
      "description": "test location27785 description of services\/prices\/hours",
      "distance": 1.59415154446437,
      "lat": 44.962141,
      "lon": -93.279567,
      "name": "testlocation27785",
      "phone": "6125551212",
      "precise": true,
      "state": "MN",
      "url": "http:\/\/www.testlocation27785.com?id=27785",
      "urlCaption": "www.testlocation27785.com",
      "zip": "554042414"
    }, {
      "address1": "2220 Riverside Ave",
      "address2": null,
      "city": "Minneapolis",
      "crossStreet": null,
      "description": "test location28410 description of services\/prices\/hours",
      "distance": 1.68735956918072,
      "lat": 44.967377,
      "lon": -93.240534,
      "name": "testlocation28410",
      "phone": "6125551212",
      "precise": true,
      "state": "MN",
      "url": "http:\/\/www.testlocation28410.com?id=28410",
      "urlCaption": "www.testlocation28410.com",
      "zip": "554541347"
    }, {
      "address1": "420 Delaware St SE",
      "address2": "Rm C-265",
      "city": "Minneapolis",
      "crossStreet": null,
      "description": "test location58644 description of services\/prices\/hours",
      "distance": 1.7403343883682,
      "lat": 44.972418,
      "lon": -93.234578,
      "name": "testlocation58644",
      "phone": "6125551212",
      "precise": true,
      "state": "MN",
      "url": "http:\/\/www.testlocation58644.com?id=58644",
      "urlCaption": "www.testlocation58644.com",
      "zip": "554550341"
    }
  ],
  "errors": []
}